[
  { "name": "Quận 1", "lat": 10.776, "lon": 106.701, "city": "TP Hồ Chí Minh" },
  { "name": "Quận 2", "lat": 10.787, "lon": 106.750, "city": "TP Hồ Chí Minh" },
  { "name": "Quận 3", "lat": 10.784, "lon": 106.684, "city": "TP Hồ Chí Minh" },
  { "name": "Quận 4", "lat": 10.759, "lon": 106.705, "city": "TP Hồ Chí Minh" },
  { "name": "Quận 5", "lat": 10.754, "lon": 106.667, "city": "TP Hồ Chí Minh" },
  { "name": "Quận 6", "lat": 10.746, "lon": 106.635, "city": "TP Hồ Chí Minh" },
  { "name": "Quận 7", "lat": 10.736, "lon": 106.722, "city": "TP Hồ Chí Minh" },
  { "name": "Quận 8", "lat": 10.740, "lon": 106.628, "city": "TP Hồ Chí Minh" },
  { "name": "Quận 9", "lat": 10.842, "lon": 106.802, "city": "TP Hồ Chí Minh" },
  { "name": "Quận 10", "lat": 10.773, "lon": 106.667, "city": "TP Hồ Chí Minh" },
  { "name": "Quận 11", "lat": 10.764, "lon": 106.650, "city": "TP Hồ Chí Minh" },
  { "name": "Quận 12", "lat": 10.867, "lon": 106.654, "city": "TP Hồ Chí Minh" },
  { "name": "Bình Thạnh", "lat": 10.810, "lon": 106.709, "city": "TP Hồ Chí Minh" },
  { "name": "Phú Nhuận", "lat": 10.799, "lon": 106.680, "city": "TP Hồ Chí Minh" },
  { "name": "Tân Bình", "lat": 10.801, "lon": 106.652, "city": "TP Hồ Chí Minh" },
  { "name": "Tân Phú", "lat": 10.790, "lon": 106.628, "city": "TP Hồ Chí Minh" },
  { "name": "Gò Vấp", "lat": 10.838, "lon": 106.665, "city": "TP Hồ Chí Minh" },
  { "name": "Bình Tân", "lat": 10.765, "lon": 106.603, "city": "TP Hồ Chí Minh" },
  { "name": "Thủ Đức", "lat": 10.850, "lon": 106.756, "city": "TP Hồ Chí Minh" },
  { "name": "Củ Chi", "lat": 10.973, "lon": 106.494, "city": "TP Hồ Chí Minh" },
  { "name": "Hóc Môn", "lat": 10.887, "lon": 106.595, "city": "TP Hồ Chí Minh" },
  { "name": "Bình Chánh", "lat": 10.730, "lon": 106.575, "city": "TP Hồ Chí Minh" },
  { "name": "Nhà Bè", "lat": 10.695, "lon": 106.733, "city": "TP Hồ Chí Minh" },
  { "name": "Cần Giờ", "lat": 10.520, "lon": 106.880, "city": "TP Hồ Chí Minh" },
  { "name": "Hoàn Kiếm", "lat": 21.029, "lon": 105.852, "city": "Hà Nội" },
  { "name": "Ba Đình", "lat": 21.035, "lon": 105.814, "city": "Hà Nội" },
  { "name": "Đống Đa", "lat": 21.018, "lon": 105.829, "city": "Hà Nội" },
  { "name": "Hai Bà Trưng", "lat": 21.008, "lon": 105.857, "city": "Hà Nội" },
  { "name": "Cầu Giấy", "lat": 21.031, "lon": 105.800, "city": "Hà Nội" },
  { "name": "Thanh Xuân", "lat": 20.995, "lon": 105.805, "city": "Hà Nội" },
  { "name": "Tây Hồ", "lat": 21.067, "lon": 105.820, "city": "Hà Nội" },
  { "name": "Hoàng Mai", "lat": 20.975, "lon": 105.860, "city": "Hà Nội" },
  { "name": "Long Biên", "lat": 21.040, "lon": 105.890, "city": "Hà Nội" },
  { "name": "Hà Đông", "lat": 20.955, "lon": 105.760, "city": "Hà Nội" },
  { "name": "Nam Từ Liêm", "lat": 21.015, "lon": 105.760, "city": "Hà Nội" },
  { "name": "Bắc Từ Liêm", "lat": 21.072, "lon": 105.760, "city": "Hà Nội" },
  { "name": "Hải Châu", "lat": 16.060, "lon": 108.222, "city": "Đà Nẵng" },
  { "name": "Thanh Khê", "lat": 16.064, "lon": 108.190, "city": "Đà Nẵng" },
  { "name": "Sơn Trà", "lat": 16.085, "lon": 108.250, "city": "Đà Nẵng" },
  { "name": "Ngũ Hành Sơn", "lat": 16.018, "lon": 108.255, "city": "Đà Nẵng" },
  { "name": "Liên Chiểu", "lat": 16.085, "lon": 108.150, "city": "Đà Nẵng" },
  { "name": "Cẩm Lệ", "lat": 16.020, "lon": 108.200, "city": "Đà Nẵng" }
]
